{
	"cities": [
		{
			"name": "Москва", "shops": [
				{
					"id": "1",
					"name": " на океанском проспекте",
					"address": "улица Баумана, 110",
					"telephone": "(432) 244-88-44",
					"worktime": "10:00 - 21:00, без выходных",
					"coordinates": [
						"55.0865",
						"37.97468"
					]
				},
				{
					"id": "2",
					"name": " на океанском проспекте",
					"address": "улица Баумана, 110",
					"telephone": "(432) 244-88-44",
					"worktime": "10:00 - 21:00, без выходных",
					"coordinates": [
						"56.0865",
						"37.97468"
					]
				}
			]
		},
		{
			"name": "Ульяновск", "shops": [
				{
					"id": "3",
					"name": " на океанском проспекте",
					"address": "улица Баумана, 110",
					"telephone": "(432) 244-88-44",
					"worktime": "10:00 - 21:00, без выходных",
					"coordinates": [
						"54.0865",
						"48.97468"
					]
				},
				{
					"id": "4",
					"name": " на океанском проспекте",
					"address": "улица Баумана, 110",
					"telephone": "(432) 244-88-44",
					"worktime": "10:00 - 21:00, без выходных",
					"coordinates": [
						"55.0865",
						"48.97468"
					]
				}
			]
		},
		{
			"name": "Волгоград", "shops": [
				{
					"id": "5",
					"name": " на океанском проспекте",
					"address": "улица Баумана, 110",
					"telephone": "(432) 244-88-44",
					"worktime": "10:00 - 21:00, без выходных",
					"coordinates": [
						"54.0865",
						"48.97468"
					]
				},
				{
					"id": "4",
					"name": " на океанском проспекте",
					"address": "улица Баумана, 110",
					"telephone": "(432) 244-88-44",
					"worktime": "10:00 - 21:00, без выходных",
					"coordinates": [
						"55.0865",
						"48.97468"
					]
				}
			]
		},
		{
			"name": "Волгоград", "shops": [
				{
					"id": "7",
					"name": " на океанском проспекте",
					"address": "улица Баумана, 110",
					"telephone": "(432) 244-88-44",
					"worktime": "10:00 - 21:00, без выходных",
					"coordinates": [
						"54.0865",
						"48.97468"
					]
				},
				{
					"id": "8",
					"name": " на океанском проспекте",
					"address": "улица Баумана, 110",
					"telephone": "(432) 244-88-44",
					"worktime": "10:00 - 21:00, без выходных",
					"coordinates": [
						"55.0865",
						"48.97468"
					]
				}
			]
		}
	],
	"center": ["55.76", "37.64"]
}